{
  "type": "FeatureCollection",
  "features": [
    {
      "type": "Feature",
      "properties": {
        "name": "Andorra",
        "code": "ad"
      },
      "geometry": {
        "type": "Point",
        "coordinates": [
          1.57676643468505,
          42.5486542501806
        ]
      }
    },
    {
      "type": "Feature",
      "properties": {
        "name": "Australia",
        "code": "au"
      },
      "geometry": {
        "type": "Point",
        "coordinates": [
          134.489562606981,
          -25.7349684916223
        ]
      }
    },
    {
      "type": "Feature",
      "properties": {
        "name": "Belarus",
        "code": "by"
      },
      "geometry": {
        "type": "Point",
        "coordinates": [
          28.0467875099009,
          53.5399976445262
        ]
      }
    },
    {
      "type": "Feature",
      "properties": {
        "name": "Bosnia and Herzegovina",
        "code": "ba"
      },
      "geometry": {
        "type": "Point",
        "coordinates": [
          50.5596439032492,
          26.0224069941867
        ]
      }
    },
    {
      "type": "Feature",
      "properties": {
        "name": "Brazil",
        "code": "br"
      },
      "geometry": {
        "type": "Point",
        "coordinates": [
          -51.6197890205486,
          -9.58890301712257
        ]
      }
    },
    {
      "type": "Feature",
      "properties": {
        "name": "Bulgaria",
        "code": "bg"
      },
      "geometry": {
        "type": "Point",
        "coordinates": [
          25.2315070071904,
          42.7613767127692
        ]
      }
    },
    {
      "type": "Feature",
      "properties": {
        "name": "Cabo Verde",
        "code": "cv"
      },
      "geometry": {
        "type": "Point",
        "coordinates": [
          -23.509,
          14.918
        ]
      }
    },
    {
      "type": "Feature",
      "properties": {
        "name": "China",
        "code": "cn"
      },
      "geometry": {
        "type": "Point",
        "coordinates": [
          101.901875103385,
          35.4867029846329
        ]
      }
    },
    {
      "type": "Feature",
      "properties": {
        "name": "Costa Rica",
        "code": "cr"
      },
      "geometry": {
        "type": "Point",
        "coordinates": [
          -84.2009147613538,
          10.2577944410312
        ]
      }
    },
    {
      "type": "Feature",
      "properties": {
        "name": "Croatia",
        "code": "hr"
      },
      "geometry": {
        "type": "Point",
        "coordinates": [
          16.6791068850861,
          45.6649521968376
        ]
      }
    },
    {
      "type": "Feature",
      "properties": {
        "name": "Dominican Republic",
        "code": "do"
      },
      "geometry": {
        "type": "Point",
        "coordinates": [
          -70.1067224933053,
          18.6062576970524
        ]
      }
    },
    {
      "type": "Feature",
      "properties": {
        "name": "Estonia",
        "code": "ee"
      },
      "geometry": {
        "type": "Point",
        "coordinates": [
          25.7615268448868,
          58.7783968568071
        ]
      }
    },
    {
      "type": "Feature",
      "properties": {
        "name": "Finland",
        "code": "fi"
      },
      "geometry": {
        "type": "Point",
        "coordinates": [
          26.199539005192,
          62.7777539652943
        ]
      }
    },
    {
      "type": "Feature",
      "properties": {
        "name": "France",
        "code": "fr"
      },
      "geometry": {
        "type": "Point",
        "coordinates": [
          2.61878695312962,
          47.8249046208979
        ]
      }
    },
    {
      "type": "Feature",
      "properties": {
        "name": "Germany",
        "code": "de"
      },
      "geometry": {
        "type": "Point",
        "coordinates": [
          10.0183432948567,
          51.1334813439932
        ]
      }
    },
    {
      "type": "Feature",
      "properties": {
        "name": "Ghana",
        "code": "gh"
      },
      "geometry": {
        "type": "Point",
        "coordinates": [
          -1.16759442759906,
          6.88085426914622
        ]
      }
    },
    {
      "type": "Feature",
      "properties": {
        "name": "Guatemala",
        "code": "gt"
      },
      "geometry": {
        "type": "Point",
        "coordinates": [
          -90.3900017126126,
          15.6055893260292
        ]
      }
    },
    {
      "type": "Feature",
      "properties": {
        "name": "Honduras",
        "code": "hn"
      },
      "geometry": {
        "type": "Point",
        "coordinates": [
          -86.9216408872841,
          14.7616644478253
        ]
      }
    },
    {
      "type": "Feature",
      "properties": {
        "name": "Hungary",
        "code": "hu"
      },
      "geometry": {
        "type": "Point",
        "coordinates": [
          19.4993490091469,
          47.0602667471763
        ]
      }
    },
    {
      "type": "Feature",
      "properties": {
        "name": "Italy",
        "code": "it"
      },
      "geometry": {
        "type": "Point",
        "coordinates": [
          12.6463610364431,
          42.5041539170675
        ]
      }
    },
    {
      "type": "Feature",
      "properties": {
        "name": "Latvia",
        "code": "lv"
      },
      "geometry": {
        "type": "Point",
        "coordinates": [
          24.8625932740492,
          56.9590654127872
        ]
      }
    },
    {
      "type": "Feature",
      "properties": {
        "name": "Luxembourg",
        "code": "lu"
      },
      "geometry": {
        "type": "Point",
        "coordinates": [
          6.08781366657564,
          49.7706279766425
        ]
      }
    },
    {
      "type": "Feature",
      "properties": {
        "name": "Mali",
        "code": "ml"
      },
      "geometry": {
        "type": "Point",
        "coordinates": [
          -1.25214497310038,
          17.3503352399376
        ]
      }
    },
    {
      "type": "Feature",
      "properties": {
        "name": "Mexico",
        "code": "mx"
      },
      "geometry": {
        "type": "Point",
        "coordinates": [
          -102.532867448126,
          23.9504642310912
        ]
      }
    },
    {
      "type": "Feature",
      "properties": {
        "name": "Mozambique",
        "code": "mz"
      },
      "geometry": {
        "type": "Point",
        "coordinates": [
          34.7501973908725,
          -18.0874664869235
        ]
      }
    },
    {
      "type": "Feature",
      "properties": {
        "name": "Netherlands",
        "code": "nl"
      },
      "geometry": {
        "type": "Point",
        "coordinates": [
          5.61349061168593,
          51.9724664894952
        ]
      }
    },
    {
      "type": "Feature",
      "properties": {
        "name": "New Zealand",
        "code": "nz"
      },
      "geometry": {
        "type": "Point",
        "coordinates": [
          171.779900195937,
          -41.8388752215127
        ]
      }
    },
    {
      "type": "Feature",
      "properties": {
        "name": "Niger",
        "code": "ne"
      },
      "geometry": {
        "type": "Point",
        "coordinates": [
          5.61349061168593,
          51.9724664894952
        ]
      }
    },
    {
      "type": "Feature",
      "properties": {
        "name": "Norway",
        "code": "no"
      },
      "geometry": {
        "type": "Point",
        "coordinates": [
          126.847799277746,
          40.3470993177997
        ]
      }
    },
    {
      "type": "Feature",
      "properties": {
        "name": "Pakistan",
        "code": "pk"
      },
      "geometry": {
        "type": "Point",
        "coordinates": [
          67.6952367278874,
          28.1863846711864
        ]
      }
    },
    {
      "type": "Feature",
      "properties": {
        "name": "Poland",
        "code": "pl"
      },
      "geometry": {
        "type": "Point",
        "coordinates": [
          19.30063630556,
          52.1246099075455
        ]
      }
    },
    {
      "type": "Feature",
      "properties": {
        "name": "Portugal",
        "code": "pt"
      },
      "geometry": {
        "type": "Point",
        "coordinates": [
          -8.56273059638958,
          39.6009946583093
        ]
      }
    },
    {
      "type": "Feature",
      "properties": {
        "name": "Saint Lucia",
        "code": "lc"
      },
      "geometry": {
        "type": "Point",
        "coordinates": [
          -60.9687124495575,
          13.897869297883
        ]
      }
    },
    {
      "type": "Feature",
      "properties": {
        "name": "Singapore",
        "code": "sg"
      },
      "geometry": {
        "type": "Point",
        "coordinates": [
          103.808052586332,
          1.3516161224392
        ]
      }
    },
    {
      "type": "Feature",
      "properties": {
        "name": "Spain",
        "code": "es"
      },
      "geometry": {
        "type": "Point",
        "coordinates": [
          -4.05568501525488,
          41.2948556295683
        ]
      }
    },
    {
      "type": "Feature",
      "properties": {
        "name": "Sweden",
        "code": "se"
      },
      "geometry": {
        "type": "Point",
        "coordinates": [
          17.6754094331351,
          64.9648751621697
        ]
      }
    },
    {
      "type": "Feature",
      "properties": {
        "name": "Switzerland",
        "code": "ch"
      },
      "geometry": {
        "type": "Point",
        "coordinates": [
          101.901875103385,
          35.4867029846329
        ]
      }
    },
    {
      "type": "Feature",
      "properties": {
        "name": "Tunisia",
        "code": "tn"
      },
      "geometry": {
        "type": "Point",
        "coordinates": [
          9.56116835557131,
          34.1107038598115
        ]
      }
    },
    {
      "type": "Feature",
      "properties": {
        "name": "Turkey",
        "code": "tr"
      },
      "geometry": {
        "type": "Point",
        "coordinates": [
          35.1795933806353,
          39.0604813685019
        ]
      }
    },
    {
      "type": "Feature",
      "properties": {
        "name": "United Arab Emirates",
        "code": "ae"
      },
      "geometry": {
        "type": "Point",
        "coordinates": [
          10.5257705053847,
          1.61213015485833
        ]
      }
    },
    {
      "type": "Feature",
      "properties": {
        "name": "United Kingdom",
        "code": "gb"
      },
      "geometry": {
        "type": "Point",
        "coordinates": [
          -2.36966957036279,
          54.2379333607472
        ]
      }
    },
    {
      "type": "Feature",
      "properties": {
        "name": "Venezuela, Bolivarian Republic of",
        "code": "ve"
      },
      "geometry": {
        "type": "Point",
        "coordinates": [
          -65.801997444749,
          7.61957014788959
        ]
      }
    },
    {
      "type": "Feature",
      "properties": {
        "name": "Argentina",
        "code": "ar"
      },
      "geometry": {
        "type": "Point",
        "coordinates": [
          -63.954193,
          -36.252002
        ]
      }
    },
    {
      "type": "Feature",
      "properties": {
        "name": "Armenia",
        "code": "am"
      },
      "geometry": {
        "type": "Point",
        "coordinates": [
          -97.9222112121185,
          39.3812661305678
        ]
      }
    },
    {
      "type": "Feature",
      "properties": {
        "name": "Austria",
        "code": "at"
      },
      "geometry": {
        "type": "Point",
        "coordinates": [
          14.3001435907641,
          47.6077978292689
        ]
      }
    },
    {
      "type": "Feature",
      "properties": {
        "name": "Barbados",
        "code": "bb"
      },
      "geometry": {
        "type": "Point",
        "coordinates": [
          -59.5619546611369,
          13.1787146900535
        ]
      }
    },
    {
      "type": "Feature",
      "properties": {
        "name": "Belgium",
        "code": "be"
      },
      "geometry": {
        "type": "Point",
        "coordinates": [
          4.63357500000001,
          50.438696
        ]
      }
    },
    {
      "type": "Feature",
      "properties": {
        "name": "Colombia",
        "code": "co"
      },
      "geometry": {
        "type": "Point",
        "coordinates": [
          -73.129056,
          3.06508799999999
        ]
      }
    },
    {
      "type": "Feature",
      "properties": {
        "name": "Cuba",
        "code": "cu"
      },
      "geometry": {
        "type": "Point",
        "coordinates": [
          -68.9817448480808,
          12.178308183856
        ]
      }
    },
    {
      "type": "Feature",
      "properties": {
        "name": "Cyprus",
        "code": "cy"
      },
      "geometry": {
        "type": "Point",
        "coordinates": [
          -81.2384511989646,
          19.3086622401692
        ]
      }
    },
    {
      "type": "Feature",
      "properties": {
        "name": "Czechia",
        "code": "cz"
      },
      "geometry": {
        "type": "Point",
        "coordinates": [
          15.3384118376873,
          49.7428590048094
        ]
      }
    },
    {
      "type": "Feature",
      "properties": {
        "name": "Congo, The Democratic Republic of the",
        "code": "cd"
      },
      "geometry": {
        "type": "Point",
        "coordinates": [
          23.1668993658996,
          -1.17291850148401
        ]
      }
    },
    {
      "type": "Feature",
      "properties": {
        "name": "Denmark",
        "code": "dk"
      },
      "geometry": {
        "type": "Point",
        "coordinates": [
          10.0462968058278,
          55.9633978748347
        ]
      }
    },
    {
      "type": "Feature",
      "properties": {
        "name": "Egypt",
        "code": "eg"
      },
      "geometry": {
        "type": "Point",
        "coordinates": [
          29.871903452398,
          26.4941838299718
        ]
      }
    },
    {
      "type": "Feature",
      "properties": {
        "name": "Georgia",
        "code": "ge"
      },
      "geometry": {
        "type": "Point",
        "coordinates": [
          10.0183432948567,
          51.1334813439932
        ]
      }
    },
    {
      "type": "Feature",
      "properties": {
        "name": "Greece",
        "code": "gr"
      },
      "geometry": {
        "type": "Point",
        "coordinates": [
          -2.36966957036279,
          54.2379333607472
        ]
      }
    },
    {
      "type": "Feature",
      "properties": {
        "name": "Guyana",
        "code": "gy"
      },
      "geometry": {
        "type": "Point",
        "coordinates": [
          -58.9747808781477,
          5.62382279034036
        ]
      }
    },
    {
      "type": "Feature",
      "properties": {
        "name": "Iceland",
        "code": "is"
      },
      "geometry": {
        "type": "Point",
        "coordinates": [
          34.8419985253627,
          31.8472608144505
        ]
      }
    },
    {
      "type": "Feature",
      "properties": {
        "name": "Indonesia",
        "code": "id"
      },
      "geometry": {
        "type": "Point",
        "coordinates": [
          106.82721585,
          -6.17555357
        ]
      }
    },
    {
      "type": "Feature",
      "properties": {
        "name": "Ireland",
        "code": "ie"
      },
      "geometry": {
        "type": "Point",
        "coordinates": [
          -7.73764888796793,
          53.3054943871234
        ]
      }
    },
    {
      "type": "Feature",
      "properties": {
        "name": "Israel",
        "code": "il"
      },
      "geometry": {
        "type": "Point",
        "coordinates": [
          34.8419985253627,
          31.8472608144505
        ]
      }
    },
    {
      "type": "Feature",
      "properties": {
        "name": "Jordan",
        "code": "jo"
      },
      "geometry": {
        "type": "Point",
        "coordinates": [
          36.4358628369717,
          31.0101920713363
        ]
      }
    },
    {
      "type": "Feature",
      "properties": {
        "name": "Kenya",
        "code": "ke"
      },
      "geometry": {
        "type": "Point",
        "coordinates": [
          37.8578818658854,
          0.529862476788944
        ]
      }
    },
    {
      "type": "Feature",
      "properties": {
        "name": "Lebanon",
        "code": "lb"
      },
      "geometry": {
        "type": "Point",
        "coordinates": [
          35.888026075855,
          33.9202654117664
        ]
      }
    },
    {
      "type": "Feature",
      "properties": {
        "name": "Lithuania",
        "code": "lt"
      },
      "geometry": {
        "type": "Point",
        "coordinates": [
          23.9315379882448,
          55.4874125822773
        ]
      }
    },
    {
      "type": "Feature",
      "properties": {
        "name": "Malaysia",
        "code": "my"
      },
      "geometry": {
        "type": "Point",
        "coordinates": [
          102.275719605501,
          4.49664266041942
        ]
      }
    },
    {
      "type": "Feature",
      "properties": {
        "name": "Maldives",
        "code": "mv"
      },
      "geometry": {
        "type": "Point",
        "coordinates": [
          73.51104943,
          4.17887365
        ]
      }
    },
    {
      "type": "Feature",
      "properties": {
        "name": "Malta",
        "code": "mt"
      },
      "geometry": {
        "type": "Point",
        "coordinates": [
          -61.0212870487474,
          14.6525485200192
        ]
      }
    },
    {
      "type": "Feature",
      "properties": {
        "name": "Monaco",
        "code": "mc"
      },
      "geometry": {
        "type": "Point",
        "coordinates": [
          7.4189617,
          43.73248184
        ]
      }
    },
    {
      "type": "Feature",
      "properties": {
        "name": "Myanmar",
        "code": "mm"
      },
      "geometry": {
        "type": "Point",
        "coordinates": [
          96.5069211391735,
          21.1543188078769
        ]
      }
    },
    {
      "type": "Feature",
      "properties": {
        "name": "Nicaragua",
        "code": "ni"
      },
      "geometry": {
        "type": "Point",
        "coordinates": [
          8.10530640960786,
          9.59395988695573
        ]
      }
    },
    {
      "type": "Feature",
      "properties": {
        "name": "Nigeria",
        "code": "ng"
      },
      "geometry": {
        "type": "Point",
        "coordinates": [
          8.10530640960786,
          9.59395988695573
        ]
      }
    },
    {
      "type": "Feature",
      "properties": {
        "name": "Oman",
        "code": "om"
      },
      "geometry": {
        "type": "Point",
        "coordinates": [
          57.0864239443949,
          21.3836372099704
        ]
      }
    },
    {
      "type": "Feature",
      "properties": {
        "name": "Peru",
        "code": "pe"
      },
      "geometry": {
        "type": "Point",
        "coordinates": [
          101.901875103385,
          35.4867029846329
        ]
      }
    },
    {
      "type": "Feature",
      "properties": {
        "name": "Philippines",
        "code": "ph"
      },
      "geometry": {
        "type": "Point",
        "coordinates": [
          120.98177916,
          14.58678841
        ]
      }
    },
    {
      "type": "Feature",
      "properties": {
        "name": "Romania",
        "code": "ro"
      },
      "geometry": {
        "type": "Point",
        "coordinates": [
          24.9692584752492,
          45.8436147575587
        ]
      }
    },
    {
      "type": "Feature",
      "properties": {
        "name": "Serbia",
        "code": "rs"
      },
      "geometry": {
        "type": "Point",
        "coordinates": [
          20.7952998132557,
          44.2267366369366
        ]
      }
    },
    {
      "type": "Feature",
      "properties": {
        "name": "Slovakia",
        "code": "sk"
      },
      "geometry": {
        "type": "Point",
        "coordinates": [
          19.4916510938648,
          48.7075308687827
        ]
      }
    },
    {
      "type": "Feature",
      "properties": {
        "name": "Slovenia",
        "code": "si"
      },
      "geometry": {
        "type": "Point",
        "coordinates": [
          103.808052586332,
          1.3516161224392
        ]
      }
    },
    {
      "type": "Feature",
      "properties": {
        "name": "South Africa",
        "code": "za"
      },
      "geometry": {
        "type": "Point",
        "coordinates": [
          23.9137106762068,
          -28.3782721906973
        ]
      }
    },
    {
      "type": "Feature",
      "properties": {
        "name": "Thailand",
        "code": "th"
      },
      "geometry": {
        "type": "Point",
        "coordinates": [
          101.017437716385,
          15.127333464868
        ]
      }
    },
    {
      "type": "Feature",
      "properties": {
        "name": "Trinidad and Tobago",
        "code": "tt"
      },
      "geometry": {
        "type": "Point",
        "coordinates": [
          -61.2531757283896,
          10.4686430117018
        ]
      }
    },
    {
      "type": "Feature",
      "properties": {
        "name": "Ukraine",
        "code": "ua"
      },
      "geometry": {
        "type": "Point",
        "coordinates": [
          54.2561723713588,
          23.8520599823879
        ]
      }
    },
    {
      "type": "Feature",
      "properties": {
        "name": "Algeria",
        "code": "dz"
      },
      "geometry": {
        "type": "Point",
        "coordinates": [
          2.63238813336793,
          28.1632395923063
        ]
      }
    },
    {
      "type": "Feature",
      "properties": {
        "name": "Azerbaijan",
        "code": "az"
      },
      "geometry": {
        "type": "Point",
        "coordinates": [
          47.720341220495,
          40.418259613178
        ]
      }
    },
    {
      "type": "Feature",
      "properties": {
        "name": "Bahrain",
        "code": "bh"
      },
      "geometry": {
        "type": "Point",
        "coordinates": [
          50.5596439032492,
          26.0224069941867
        ]
      }
    },
    {
      "type": "Feature",
      "properties": {
        "name": "Bangladesh",
        "code": "bd"
      },
      "geometry": {
        "type": "Point",
        "coordinates": [
          90.0779740421191,
          24.3476077999364
        ]
      }
    },
    {
      "type": "Feature",
      "properties": {
        "name": "Canada",
        "code": "ca"
      },
      "geometry": {
        "type": "Point",
        "coordinates": [
          -105.750595856519,
          55.5859012851966
        ]
      }
    },
    {
      "type": "Feature",
      "properties": {
        "name": "C\u00f4te d'Ivoire",
        "code": "ci"
      },
      "geometry": {
        "type": "Point",
        "coordinates": [
          -5.37900739607192,
          7.80656285654034
        ]
      }
    },
    {
      "type": "Feature",
      "properties": {
        "name": "Eswatini",
        "code": "sz"
      },
      "geometry": {
        "type": "Point",
        "coordinates": [
          31.4975289562193,
          -26.5626420959616
        ]
      }
    },
    {
      "type": "Feature",
      "properties": {
        "name": "Japan",
        "code": "jp"
      },
      "geometry": {
        "type": "Point",
        "coordinates": [
          138.592229549504,
          36.3864928218528
        ]
      }
    },
    {
      "type": "Feature",
      "properties": {
        "name": "Lesotho",
        "code": "ls"
      },
      "geometry": {
        "type": "Point",
        "coordinates": [
          28.2430108685831,
          -29.5809998474103
        ]
      }
    },
    {
      "type": "Feature",
      "properties": {
        "name": "Montenegro",
        "code": "me"
      },
      "geometry": {
        "type": "Point",
        "coordinates": [
          -102.532867448126,
          23.9504642310912
        ]
      }
    },
    {
      "type": "Feature",
      "properties": {
        "name": "Qatar",
        "code": "qa"
      },
      "geometry": {
        "type": "Point",
        "coordinates": [
          51.1912009969872,
          25.3150785008825
        ]
      }
    },
    {
      "type": "Feature",
      "properties": {
        "name": "Moldova, Republic of",
        "code": "md"
      },
      "geometry": {
        "type": "Point",
        "coordinates": [
          73.51104943,
          4.17887365
        ]
      }
    },
    {
      "type": "Feature",
      "properties": {
        "name": "Suriname",
        "code": "sr"
      },
      "geometry": {
        "type": "Point",
        "coordinates": [
          20.7952998132557,
          44.2267366369366
        ]
      }
    },
    {
      "type": "Feature",
      "properties": {
        "name": "Uzbekistan",
        "code": "uz"
      },
      "geometry": {
        "type": "Point",
        "coordinates": [
          63.169371992914,
          41.7504367984144
        ]
      }
    },
    {
      "type": "Feature",
      "properties": {
        "name": "Viet Nam",
        "code": "vn"
      },
      "geometry": {
        "type": "Point",
        "coordinates": [
          108.339537475899,
          14.3154241771087
        ]
      }
    },
    {
      "type": "Feature",
      "properties": {
        "name": "Albania",
        "code": "al"
      },
      "geometry": {
        "type": "Point",
        "coordinates": [
          2.63238813336793,
          28.1632395923063
        ]
      }
    },
    {
      "type": "Feature",
      "properties": {
        "name": "Bahamas",
        "code": "bs"
      },
      "geometry": {
        "type": "Point",
        "coordinates": [
          -77.3408,
          25.07471
        ]
      }
    },
    {
      "type": "Feature",
      "properties": {
        "name": "Benin",
        "code": "bj"
      },
      "geometry": {
        "type": "Point",
        "coordinates": [
          2.42667424920265,
          10.3383829799812
        ]
      }
    },
    {
      "type": "Feature",
      "properties": {
        "name": "Brunei Darussalam",
        "code": "bn"
      },
      "geometry": {
        "type": "Point",
        "coordinates": [
          114.562410992128,
          4.56546705389121
        ]
      }
    },
    {
      "type": "Feature",
      "properties": {
        "name": "Jamaica",
        "code": "jm"
      },
      "geometry": {
        "type": "Point",
        "coordinates": [
          -77.3192220134904,
          18.1512945138
        ]
      }
    },
    {
      "type": "Feature",
      "properties": {
        "name": "Mauritania",
        "code": "mr"
      },
      "geometry": {
        "type": "Point",
        "coordinates": [
          -10.5327926241955,
          19.7574723127526
        ]
      }
    },
    {
      "type": "Feature",
      "properties": {
        "name": "Russian Federation",
        "code": "ru"
      },
      "geometry": {
        "type": "Point",
        "coordinates": [
          96.6697054604756,
          61.9945734073292
        ]
      }
    },
    {
      "type": "Feature",
      "properties": {
        "name": "Sri Lanka",
        "code": "lk"
      },
      "geometry": {
        "type": "Point",
        "coordinates": [
          80.7047272491285,
          7.60808521895433
        ]
      }
    },
    {
      "type": "Feature",
      "properties": {
        "name": "Palestine, State of",
        "code": "ps"
      },
      "geometry": {
        "type": "Point",
        "coordinates": [
          35.2,
          31.88333
        ]
      }
    },
    {
      "type": "Feature",
      "properties": {
        "name": "Afghanistan",
        "code": "af"
      },
      "geometry": {
        "type": "Point",
        "coordinates": [
          66.0264709817607,
          33.8388058603423
        ]
      }
    },
    {
      "type": "Feature",
      "properties": {
        "name": "Eritrea",
        "code": "er"
      },
      "geometry": {
        "type": "Point",
        "coordinates": [
          38.584156324299,
          15.6805129748268
        ]
      }
    },
    {
      "type": "Feature",
      "properties": {
        "name": "Malawi",
        "code": "mw"
      },
      "geometry": {
        "type": "Point",
        "coordinates": [
          33.739163883354,
          -13.2158036349607
        ]
      }
    },
    {
      "type": "Feature",
      "properties": {
        "name": "Morocco",
        "code": "ma"
      },
      "geometry": {
        "type": "Point",
        "coordinates": [
          102.275719605501,
          4.49664266041942
        ]
      }
    },
    {
      "type": "Feature",
      "properties": {
        "name": "Uruguay",
        "code": "uy"
      },
      "geometry": {
        "type": "Point",
        "coordinates": [
          -56.012396238658,
          -32.7996455126793
        ]
      }
    },
    {
      "type": "Feature",
      "properties": {
        "name": "El Salvador",
        "code": "sv"
      },
      "geometry": {
        "type": "Point",
        "coordinates": [
          -88.8665114518297,
          13.7368969076932
        ]
      }
    },
    {
      "type": "Feature",
      "properties": {
        "name": "Iraq",
        "code": "iq"
      },
      "geometry": {
        "type": "Point",
        "coordinates": [
          43.4047161632042,
          33.0480556443919
        ]
      }
    },
    {
      "type": "Feature",
      "properties": {
        "name": "Samoa",
        "code": "ws"
      },
      "geometry": {
        "type": "Point",
        "coordinates": [
          -171.76374956,
          -13.83932976
        ]
      }
    },
    {
      "type": "Feature",
      "properties": {
        "name": "Togo",
        "code": "tg"
      },
      "geometry": {
        "type": "Point",
        "coordinates": [
          1.04255291389074,
          8.76622092166324
        ]
      }
    },
    {
      "type": "Feature",
      "properties": {
        "name": "Yemen",
        "code": "ye"
      },
      "geometry": {
        "type": "Point",
        "coordinates": [
          47.6219307491681,
          15.9378350127516
        ]
      }
    },
    {
      "type": "Feature",
      "properties": {
        "name": "Djibouti",
        "code": "dj"
      },
      "geometry": {
        "type": "Point",
        "coordinates": [
          42.5777653608456,
          11.7496765333164
        ]
      }
    },
    {
      "type": "Feature",
      "properties": {
        "name": "Guinea-Bissau",
        "code": "gw"
      },
      "geometry": {
        "type": "Point",
        "coordinates": [
          -14.9634826253283,
          12.0317005007387
        ]
      }
    },
    {
      "type": "Feature",
      "properties": {
        "name": "Kazakhstan",
        "code": "kz"
      },
      "geometry": {
        "type": "Point",
        "coordinates": [
          67.3017735657682,
          48.160088082685
        ]
      }
    },
    {
      "type": "Feature",
      "properties": {
        "name": "Namibia",
        "code": "na"
      },
      "geometry": {
        "type": "Point",
        "coordinates": [
          17.2887615554773,
          -21.2010102346557
        ]
      }
    },
    {
      "type": "Feature",
      "properties": {
        "name": "Paraguay",
        "code": "py"
      },
      "geometry": {
        "type": "Point",
        "coordinates": [
          -58.3910238917002,
          -23.236210654675
        ]
      }
    },
    {
      "type": "Feature",
      "properties": {
        "name": "Bolivia, Plurinational State of",
        "code": "bo"
      },
      "geometry": {
        "type": "Point",
        "coordinates": [
          -65.801997444749,
          7.61957014788959
        ]
      }
    },
    {
      "type": "Feature",
      "properties": {
        "name": "Iran, Islamic Republic of",
        "code": "ir"
      },
      "geometry": {
        "type": "Point",
        "coordinates": [
          -7.73764888796793,
          53.3054943871234
        ]
      }
    },
    {
      "type": "Feature",
      "properties": {
        "name": "Kyrgyzstan",
        "code": "kg"
      },
      "geometry": {
        "type": "Point",
        "coordinates": [
          74.5555962804371,
          41.465053955426
        ]
      }
    },
    {
      "type": "Feature",
      "properties": {
        "name": "Panama",
        "code": "pa"
      },
      "geometry": {
        "type": "Point",
        "coordinates": [
          -58.3910238917002,
          -23.236210654675
        ]
      }
    },
    {
      "type": "Feature",
      "properties": {
        "name": "Chile",
        "code": "cl"
      },
      "geometry": {
        "type": "Point",
        "coordinates": [
          -69.761008,
          -26.783346
        ]
      }
    },
    {
      "type": "Feature",
      "properties": {
        "name": "Liechtenstein",
        "code": "li"
      },
      "geometry": {
        "type": "Point",
        "coordinates": [
          18.0232797726029,
          27.0439610747292
        ]
      }
    },
    {
      "type": "Feature",
      "properties": {
        "name": "Mauritius",
        "code": "mu"
      },
      "geometry": {
        "type": "Point",
        "coordinates": [
          57.5025125,
          -20.16385665
        ]
      }
    },
    {
      "type": "Feature",
      "properties": {
        "name": "Ecuador",
        "code": "ec"
      },
      "geometry": {
        "type": "Point",
        "coordinates": [
          -78.4329147227382,
          -1.16017132420716
        ]
      }
    },
    {
      "type": "Feature",
      "properties": {
        "name": "Korea, Republic of",
        "code": "kr"
      },
      "geometry": {
        "type": "Point",
        "coordinates": [
          128.168944342317,
          36.5362364654109
        ]
      }
    },
    {
      "type": "Feature",
      "properties": {
        "name": "Senegal",
        "code": "sn"
      },
      "geometry": {
        "type": "Point",
        "coordinates": [
          -14.8208799701359,
          15.2214469730201
        ]
      }
    },
    {
      "type": "Feature",
      "properties": {
        "name": "Zambia",
        "code": "zm"
      },
      "geometry": {
        "type": "Point",
        "coordinates": [
          27.4306751716734,
          -14.0049082837326
        ]
      }
    },
    {
      "type": "Feature",
      "properties": {
        "name": "Mongolia",
        "code": "mn"
      },
      "geometry": {
        "type": "Point",
        "coordinates": [
          103.083217801107,
          46.8352906606684
        ]
      }
    },
    {
      "type": "Feature",
      "properties": {
        "name": "Papua New Guinea",
        "code": "pg"
      },
      "geometry": {
        "type": "Point",
        "coordinates": [
          145.241749381464,
          -6.4783775316607
        ]
      }
    },
    {
      "type": "Feature",
      "properties": {
        "name": "Botswana",
        "code": "bw"
      },
      "geometry": {
        "type": "Point",
        "coordinates": [
          24.3162647690614,
          -22.2129427788611
        ]
      }
    },
    {
      "type": "Feature",
      "properties": {
        "name": "Kuwait",
        "code": "kw"
      },
      "geometry": {
        "type": "Point",
        "coordinates": [
          47.5906041080513,
          29.3412115743027
        ]
      }
    },
    {
      "type": "Feature",
      "properties": {
        "name": "American Samoa",
        "code": "as"
      },
      "geometry": {
        "type": "Point",
        "coordinates": [
          -170.707833250312,
          -14.304405426733
        ]
      }
    },
    {
      "type": "Feature",
      "properties": {
        "name": "Sierra Leone",
        "code": "sl"
      },
      "geometry": {
        "type": "Point",
        "coordinates": [
          -88.8665114518297,
          13.7368969076932
        ]
      }
    },
    {
      "type": "Feature",
      "properties": {
        "name": "Sudan",
        "code": "sd"
      },
      "geometry": {
        "type": "Point",
        "coordinates": [
          30.049948137055,
          13.831539138903
        ]
      }
    },
    {
      "type": "Feature",
      "properties": {
        "name": "Saint Barth\u00e9lemy",
        "code": "bl"
      },
      "geometry": {
        "type": "Point",
        "coordinates": [
          28.0467875099009,
          53.5399976445262
        ]
      }
    },
    {
      "type": "Feature",
      "properties": {
        "name": "Burkina Faso",
        "code": "bf"
      },
      "geometry": {
        "type": "Point",
        "coordinates": [
          -1.57306231994955,
          12.2779295146076
        ]
      }
    },
    {
      "type": "Feature",
      "properties": {
        "name": "Korea, Democratic People's Republic of",
        "code": "kp"
      },
      "geometry": {
        "type": "Point",
        "coordinates": [
          126.847799277746,
          40.3470993177997
        ]
      }
    },
    {
      "type": "Feature",
      "properties": {
        "name": "North Macedonia",
        "code": "mk"
      },
      "geometry": {
        "type": "Point",
        "coordinates": [
          21.6974757513494,
          41.5996826646442
        ]
      }
    },
    {
      "type": "Feature",
      "properties": {
        "name": "Turkmenistan",
        "code": "tm"
      },
      "geometry": {
        "type": "Point",
        "coordinates": [
          59.3843773120436,
          39.1222850315681
        ]
      }
    },
    {
      "type": "Feature",
      "properties": {
        "name": "Hong Kong",
        "code": "hk"
      },
      "geometry": {
        "type": "Point",
        "coordinates": [
          114.16255,
          22.279356
        ]
      }
    },
    {
      "type": "Feature",
      "properties": {
        "name": "Saudi Arabia",
        "code": "sa"
      },
      "geometry": {
        "type": "Point",
        "coordinates": [
          44.652426,
          23.384784
        ]
      }
    },
    {
      "type": "Feature",
      "properties": {
        "name": "India",
        "code": "in"
      },
      "geometry": {
        "type": "Point",
        "coordinates": [
          78.476681027237,
          22.1991660760527
        ]
      }
    },
    {
      "type": "Feature",
      "properties": {
        "name": "Gambia",
        "code": "gm"
      },
      "geometry": {
        "type": "Point",
        "coordinates": [
          -15.912854478675,
          13.4445255191194
        ]
      }
    },
    {
      "type": "Feature",
      "properties": {
        "name": "Uganda",
        "code": "ug"
      },
      "geometry": {
        "type": "Point",
        "coordinates": [
          32.3862178703861,
          1.27996353132461
        ]
      }
    },
    {
      "type": "Feature",
      "properties": {
        "name": "Gibraltar",
        "code": "gi"
      },
      "geometry": {
        "type": "Point",
        "coordinates": [
          -11.0298621655307,
          10.7855460398783
        ]
      }
    },
    {
      "type": "Feature",
      "properties": {
        "name": "United States",
        "code": "us"
      },
      "geometry": {
        "type": "Point",
        "coordinates": [
          -97.9222112121185,
          39.3812661305678
        ]
      }
    },
    {
      "type": "Feature",
      "properties": {
        "name": "Ethiopia",
        "code": "et"
      },
      "geometry": {
        "type": "Point",
        "coordinates": [
          39.6160319910272,
          8.62621960079895
        ]
      }
    },
    {
      "type": "Feature",
      "properties": {
        "name": "Tajikistan",
        "code": "tj"
      },
      "geometry": {
        "type": "Point",
        "coordinates": [
          71.0420037711059,
          38.8385084835418
        ]
      }
    },
    {
      "type": "Feature",
      "properties": {
        "name": "South Sudan",
        "code": "ss"
      },
      "geometry": {
        "type": "Point",
        "coordinates": [
          30.0548899999997,
          7.2653860999999
        ]
      }
    }
  ]
}